X,Y,Name,id,alt_name,latitude,longitude,name2
124.09015,0.65557,SULAWESI UTARA,71,SULAWESI UTARA,0.65557,124.09015,SULAWESI UTARA
120.80886,-1.69378,SULAWESI TENGAH,72,SULAWESI TENGAH,-1.69378,120.80886,SULAWESI TENGAH
119.94719,-3.64467,SULAWESI SELATAN,73,SULAWESI SELATAN,-3.64467,119.94719,SULAWESI SELATAN
121.72796,-3.54912,SULAWESI TENGGARA,74,SULAWESI TENGGARA,-3.54912,121.72796,SULAWESI TENGGARA
122.45559,0.71862,GORONTALO,75,GORONTALO,0.71862,122.45559,GORONTALO
119.3919,-2.49745,SULAWESI BARAT,76,SULAWESI BARAT,-2.49745,119.3919,SULAWESI BARAT
